{
  "type": "FeatureCollection",
  "features": [
    {
      "type": "Feature",
      "properties": {
        "name": "DC9 Nightclub",
        "shortname": "DC9",
        "twitter": "dc9nightclub",
        "id": "dc9",
        "address": "1940 9th St NW",
        "phone": "(202) 483-5000",
        "color": "rgb(150, 40, 27)"
      },
      "geometry": {
        "type": "Point",
        "coordinates": [
          -77.0241319,
          38.9166845
        ]
      }
    },
    {
      "type": "Feature",
      "properties": {
        "id": "blackcat",
        "name": "Black Cat",
        "shortname": "Black Cat",
        "twitter": "BlackCatDC",
        "phone": "2026674490",
        "address": "1811 14th St NW",
        "color": "rgb(30, 130, 76)"
      },
      "geometry": {
        "type": "Point",
        "coordinates": [
          -77.0317781,
          38.9146071
        ]
      }
    },
    {
      "type": "Feature",
      "properties": {
        "name": "Rock N Roll Hotel",
        "shortname": "RNR Hotel",
        "twitter": "rocknrollhotel",
        "id": "rnr",
        "address": "1353 H Street N.E Washington, DC 20002",
        "phone": "2023887625",
        "color": "rgb(192, 57, 43)"
      },
      "geometry": {
        "type": "Point",
        "coordinates": [
          -76.9865552,
          38.899994
        ]
      }
    },
    {
      "type": "Feature",
      "properties": {
        "name": "Velvet Lounge",
        "shortname": "Velvet Lounge",
        "id": "velvetlounge",
        "twitter": "VelvetLoungeDC",
        "address": "915 U Street NW Washington, DC",
        "phone": "2024623213",
        "color": "rgb(185,29,71)"
      },
      "geometry": {
        "type": "Point",
        "coordinates": [
          -76.9865552,
          38.899994
        ]
      }
    },
    {
      "type": "Feature",
      "properties": {
        "name": "U Street Music Hall",
        "shortname": "U Street",
        "id": "ustreet",
        "twitter": "uhalldc",
        "address": "1115 U Street NW, Washington D.C.",
        "phone": "2025881889",
        "color": "rgb(58, 83, 155)"
      },
      "geometry": {
        "type": "Point",
        "coordinates": [
          -77.02771604061127,
          38.91715735261103
        ]
      }
    },
    {
      "type": "Feature",
      "properties": {
        "name": "9:30 Club",
        "shortname": "930",
        "id": "930",
        "twitter": "930club",
        "address": "815 V ST. N.W. WASHINGTON DC",
        "phone": "202.265.0930",
        "color": "rgb(34, 49, 63)"
      },
      "geometry": {
        "type": "Point",
        "coordinates": [
          -77.02362298965454,
          38.917875244753596
        ]
      }
    },
    {
      "type": "Feature",
      "properties": {
        "name": "Fort Reno",
        "shortname": "Ft. Reno",
        "id": "fortreno",
        "address": "Fort Reno Park, Washington, DC 20016",
        "phone": "202.355.6356",
        "color": "rgb(44,62,80)"
      },
      "geometry": {
        "type": "Point",
        "coordinates": [
          -77.0791016,
          38.9523007
        ]
      }
    }
  ]
}
